id,latitude,longitude,cityname
1,17.4796321,78.4173848,"KUKATPALLY"
2, 18.5513, 73.9210, Pune
3, 18.7939, 73.3346,Khopoli
4, 17.6599,75.9064, Solapur
5, 18.7376, 73.6747, Talegaon Dabhade
6, 18.7448,73.4817, Malavali